{
  "mechinot": [
    {
      "name": "מכינת גליל עליון",
      "branches": [
        {
          "branchName": "מעיין ברוך",
          "location": "קיבוץ מעיין ברוך",
          "lat": 33.2386,
          "lng": 35.5985,
          "region": "צפון"
        },
        {
          "branchName": "כפר הנשיא",
          "location": "קיבוץ כפר הנשיא",
          "lat": 32.9822,
          "lng": 35.6034,
          "region": "צפון"
        },
        {
          "branchName": "ברעם",
          "location": "קיבוץ ברעם",
          "lat": 33.0581,
          "lng": 35.4129,
          "region": "צפון"
        }
      ]
    },
    {
      "name": "מכינת נחשון",
      "branches": [
        {
          "branchName": "כפר הנוער מקווה ישראל",
          "location": "חולון",
          "lat": 32.0305,
          "lng": 34.7831,
          "region": "מרכז"
        },
        {
          "branchName": "שדרות",
          "location": "שדרות",
          "lat": 31.5247,
          "lng": 34.5954,
          "region": "דרום"
        },
        {
          "branchName": "להבים",
          "location": "להבים",
          "lat": 31.3789,
          "lng": 34.8219,
          "region": "דרום"
        },
        {
          "branchName": "קיבוץ שובל",
          "location": "קיבוץ שובל",
          "lat": 31.4111,
          "lng": 34.7475,
          "region": "דרום"
        }
      ]
    },
    {
      "name": "מכינת עין פרת",
      "branches": [
        {
          "branchName": "כפר אדומים",
          "location": "כפר אדומים",
          "lat": 31.8315,
          "lng": 35.3528,
          "region": "יו״ש"
        },
        {
          "branchName": "נופי פרת",
          "location": "נופי פרת",
          "lat": 31.8260,
          "lng": 35.3370,
          "region": "יו״ש"
        }
      ]
    },
    {
      "name": "מכינת אופקים",
      "branches": [
        {
          "branchName": "אופקים",
          "location": "אופקים",
          "lat": 31.3142,
          "lng": 34.6202,
          "region": "דרום"
        }
      ]
    },
    {
      "name": "מכינת תבור",
      "branches": [
        {
          "branchName": "נוף הגליל",
          "location": "נוף הגליל",
          "lat": 32.7066,
          "lng": 35.3122,
          "region": "צפון"
        },
        {
          "branchName": "רמת השופט",
          "location": "קיבוץ רמת השופט",
          "lat": 32.6105,
          "lng": 35.0941,
          "region": "צפון"
        }
      ]
    },
    {
      "name": "מכינת דרך ארץ",
      "branches": [
        {
          "branchName": "ערד",
          "location": "ערד",
          "lat": 31.2604,
          "lng": 35.2127,
          "region": "דרום"
        },
        {
          "branchName": "ניצנה",
          "location": "כפר הנוער ניצנה",
          "lat": 30.8797,
          "lng": 34.4372,
          "region": "דרום"
        }
      ]
    },
    {
      "name": "מכינת העמק",
      "branches": [
        {
          "branchName": "שלוחות",
          "location": "קיבוץ שלוחות",
          "lat": 32.4842,
          "lng": 35.4801,
          "region": "צפון"
        },
        {
          "branchName": "כפר רופין",
          "location": "קיבוץ כפר רופין",
          "lat": 32.4608,
          "lng": 35.5552,
          "region": "צפון"
        }
      ]
    },
    {
      "name": "מכינת רבין",
      "branches": [
        {
          "branchName": "חיפה",
          "location": "חיפה",
          "lat": 32.7940,
          "lng": 34.9896,
          "region": "צפון"
        },
        {
          "branchName": "מזרע",
          "location": "קיבוץ מזרע",
          "lat": 32.6486,
          "lng": 35.2952,
          "region": "צפון"
        },
        {
          "branchName": "ראש הנקרה",
          "location": "קיבוץ ראש הנקרה",
          "lat": 33.0886,
          "lng": 35.1086,
          "region": "צפון"
        }
      ]
    },
    {
      "name": "מכינת ארז",
      "branches": [
        {
          "branchName": "אור יהודה",
          "location": "אור יהודה",
          "lat": 32.0304,
          "lng": 34.8517,
          "region": "מרכז"
        },
        {
          "branchName": "באר שבע",
          "location": "באר שבע",
          "lat": 31.2518,
          "lng": 34.7913,
          "region": "דרום"
        },
        {
          "branchName": "לוד",
          "location": "לוד",
          "lat": 31.9510,
          "lng": 34.8930,
          "region": "מרכז"
        },
        {
          "branchName": "שלומי",
          "location": "שלומי",
          "lat": 33.0768,
          "lng": 35.1485,
          "region": "צפון"
        }
      ]
    },
    {
      "name": "מכינת מיצר",
      "branches": [
        {
          "branchName": "מיצר",
          "location": "קיבוץ מיצר",
          "lat": 32.7766,
          "lng": 35.7951,
          "region": "צפון"
        }
      ]
    },
    {
      "name": "מכינת מנשרים קלו",
      "branches": [
        {
          "branchName": "מעגן מיכאל",
          "location": "קיבוץ מעגן מיכאל",
          "lat": 32.5574,
          "lng": 34.9126,
          "region": "צפון"
        }
      ]
    }
  ]
}